<?xml version="1.0" encoding="UTF-8"?>
<GeocodeResponse>
    <status>OK</status>
    <result>
        <type>establishment</type>
        <type>point_of_interest</type>
        <formatted_address>331, Bar Yohai, Israel</formatted_address>
        <address_component>
            <long_name>331</long_name>
            <short_name>331</short_name>
            <type>premise</type>
        </address_component>
        <address_component>
            <long_name>Bar Yohai</long_name>
            <short_name>Bar Yohai</short_name>
            <type>locality</type>
            <type>political</type>
        </address_component>
        <address_component>
            <long_name>Tzfat</long_name>
            <short_name>Tzfat</short_name>
            <type>administrative_area_level_2</type>
            <type>political</type>
        </address_component>
        <address_component>
            <long_name>North District</long_name>
            <short_name>North District</short_name>
            <type>administrative_area_level_1</type>
            <type>political</type>
        </address_component>
        <address_component>
            <long_name>Israel</long_name>
            <short_name>IL</short_name>
            <type>country</type>
            <type>political</type>
        </address_component>
        <geometry>
            <location>
                <lat>32.9959042</lat>
                <lng>35.4504682</lng>
            </location>
            <location_type>ROOFTOP</location_type>
            <viewport>
                <southwest>
                    <lat>32.9945552</lat>
                    <lng>35.4491192</lng>
                </southwest>
                <northeast>
                    <lat>32.9972532</lat>
                    <lng>35.4518172</lng>
                </northeast>
            </viewport>
        </geometry>
        <place_id>ChIJFR4HXjskHBURYCzx84fH1X4</place_id>
        <plus_code>
            <global_code>8G4QXFW2+95</global_code>
            <compound_code>XFW2+95 Bar Yohai, Israel</compound_code>
        </plus_code>
    </result>
    <result>
        <type>street_address</type>
        <formatted_address>86, Bar Yohai, Israel</formatted_address>
        <address_component>
            <long_name>86</long_name>
            <short_name>86</short_name>
            <type>premise</type>
        </address_component>
        <address_component>
            <long_name>Bar Yohai</long_name>
            <short_name>Bar Yohai</short_name>
            <type>locality</type>
            <type>political</type>
        </address_component>
        <address_component>
            <long_name>Tzfat</long_name>
            <short_name>Tzfat</short_name>
            <type>administrative_area_level_2</type>
            <type>political</type>
        </address_component>
        <address_component>
            <long_name>North District</long_name>
            <short_name>North District</short_name>
            <type>administrative_area_level_1</type>
            <type>political</type>
        </address_component>
        <address_component>
            <long_name>Israel</long_name>
            <short_name>IL</short_name>
            <type>country</type>
            <type>political</type>
        </address_component>
        <geometry>
            <location>
                <lat>32.9964071</lat>
                <lng>35.4495705</lng>
            </location>
            <location_type>ROOFTOP</location_type>
            <viewport>
                <southwest>
                    <lat>32.9950581</lat>
                    <lng>35.4482215</lng>
                </southwest>
                <northeast>
                    <lat>32.9977561</lat>
                    <lng>35.4509195</lng>
                </northeast>
            </viewport>
        </geometry>
        <place_id>ChIJAYTFPTskHBURCFvRde_B7DE</place_id>
        <plus_code>
            <global_code>8G4QXCWX+HR</global_code>
            <compound_code>XCWX+HR Bar Yohai, Israel</compound_code>
        </plus_code>
    </result>
    <result>
        <type>route</type>
        <formatted_address>Derech HaZayit, Bar Yohai, Israel</formatted_address>
        <address_component>
            <long_name>Derech HaZayit</long_name>
            <short_name>Derech HaZayit</short_name>
            <type>route</type>
        </address_component>
        <address_component>
            <long_name>Bar Yohai</long_name>
            <short_name>Bar Yohai</short_name>
            <type>locality</type>
            <type>political</type>
        </address_component>
        <address_component>
            <long_name>Tzfat</long_name>
            <short_name>Tzfat</short_name>
            <type>administrative_area_level_2</type>
            <type>political</type>
        </address_component>
        <address_component>
            <long_name>North District</long_name>
            <short_name>North District</short_name>
            <type>administrative_area_level_1</type>
            <type>political</type>
        </address_component>
        <address_component>
            <long_name>Israel</long_name>
            <short_name>IL</short_name>
            <type>country</type>
            <type>political</type>
        </address_component>
        <geometry>
            <location>
                <lat>32.9963150</lat>
                <lng>35.4487106</lng>
            </location>
            <location_type>GEOMETRIC_CENTER</location_type>
            <viewport>
                <southwest>
                    <lat>32.9949660</lat>
                    <lng>35.4473617</lng>
                </southwest>
                <northeast>
                    <lat>32.9976640</lat>
                    <lng>35.4500596</lng>
                </northeast>
            </viewport>
            <bounds>
                <southwest>
                    <lat>32.9961999</lat>
                    <lng>35.4486619</lng>
                </southwest>
                <northeast>
                    <lat>32.9964301</lat>
                    <lng>35.4487594</lng>
                </northeast>
            </bounds>
        </geometry>
        <place_id>ChIJ7dssGDskHBURDiiXj_9CeiU</place_id>
    </result>
    <result>
        <type>locality</type>
        <type>political</type>
        <formatted_address>Bar Yohai, Israel</formatted_address>
        <address_component>
            <long_name>Bar Yohai</long_name>
            <short_name>Bar Yohai</short_name>
            <type>locality</type>
            <type>political</type>
        </address_component>
        <address_component>
            <long_name>Tzfat</long_name>
            <short_name>Tzfat</short_name>
            <type>administrative_area_level_2</type>
            <type>political</type>
        </address_component>
        <address_component>
            <long_name>North District</long_name>
            <short_name>North District</short_name>
            <type>administrative_area_level_1</type>
            <type>political</type>
        </address_component>
        <address_component>
            <long_name>Israel</long_name>
            <short_name>IL</short_name>
            <type>country</type>
            <type>political</type>
        </address_component>
        <geometry>
            <location>
                <lat>32.9977040</lat>
                <lng>35.4481900</lng>
            </location>
            <location_type>APPROXIMATE</location_type>
            <viewport>
                <southwest>
                    <lat>32.9940149</lat>
                    <lng>35.4438690</lng>
                </southwest>
                <northeast>
                    <lat>33.0016649</lat>
                    <lng>35.4534780</lng>
                </northeast>
            </viewport>
            <bounds>
                <southwest>
                    <lat>32.9940149</lat>
                    <lng>35.4438690</lng>
                </southwest>
                <northeast>
                    <lat>33.0016649</lat>
                    <lng>35.4534780</lng>
                </northeast>
            </bounds>
        </geometry>
        <place_id>ChIJczD4KjskHBURezemwnK02p4</place_id>
    </result>
    <result>
        <type>administrative_area_level_4</type>
        <type>political</type>
        <formatted_address>Merom HaGalil Regional Council, Israel</formatted_address>
        <address_component>
            <long_name>Merom HaGalil Regional Council</long_name>
            <short_name>Merom HaGalil Regional Council</short_name>
            <type>administrative_area_level_4</type>
            <type>political</type>
        </address_component>
        <address_component>
            <long_name>North District</long_name>
            <short_name>North District</short_name>
            <type>administrative_area_level_1</type>
            <type>political</type>
        </address_component>
        <address_component>
            <long_name>Israel</long_name>
            <short_name>IL</short_name>
            <type>country</type>
            <type>political</type>
        </address_component>
        <geometry>
            <location>
                <lat>32.9916546</lat>
                <lng>35.4672368</lng>
            </location>
            <location_type>APPROXIMATE</location_type>
            <viewport>
                <southwest>
                    <lat>32.8556009</lat>
                    <lng>35.3256180</lng>
                </southwest>
                <northeast>
                    <lat>33.0930423</lat>
                    <lng>35.5484579</lng>
                </northeast>
            </viewport>
            <bounds>
                <southwest>
                    <lat>32.8556009</lat>
                    <lng>35.3256180</lng>
                </southwest>
                <northeast>
                    <lat>33.0930423</lat>
                    <lng>35.5484579</lng>
                </northeast>
            </bounds>
        </geometry>
        <place_id>ChIJoTZsThskHBUR4vIIdAs801c</place_id>
    </result>
    <result>
        <type>administrative_area_level_3</type>
        <type>political</type>
        <formatted_address>Eastern Upper Galilee, Israel</formatted_address>
        <address_component>
            <long_name>Eastern Upper Galilee</long_name>
            <short_name>Eastern Upper Galilee</short_name>
            <type>administrative_area_level_3</type>
            <type>political</type>
        </address_component>
        <address_component>
            <long_name>Tzfat</long_name>
            <short_name>Tzfat</short_name>
            <type>administrative_area_level_2</type>
            <type>political</type>
        </address_component>
        <address_component>
            <long_name>North District</long_name>
            <short_name>North District</short_name>
            <type>administrative_area_level_1</type>
            <type>political</type>
        </address_component>
        <address_component>
            <long_name>Israel</long_name>
            <short_name>IL</short_name>
            <type>country</type>
            <type>political</type>
        </address_component>
        <geometry>
            <location>
                <lat>33.0104664</lat>
                <lng>35.5000999</lng>
            </location>
            <location_type>APPROXIMATE</location_type>
            <viewport>
                <southwest>
                    <lat>32.8768310</lat>
                    <lng>35.3617891</lng>
                </southwest>
                <northeast>
                    <lat>33.2599649</lat>
                    <lng>35.5731181</lng>
                </northeast>
            </viewport>
            <bounds>
                <southwest>
                    <lat>32.8768310</lat>
                    <lng>35.3617891</lng>
                </southwest>
                <northeast>
                    <lat>33.2599649</lat>
                    <lng>35.5731181</lng>
                </northeast>
            </bounds>
        </geometry>
        <place_id>ChIJL3nIgyIgHBURiygbwl1Npd8</place_id>
    </result>
    <result>
        <type>administrative_area_level_2</type>
        <type>political</type>
        <formatted_address>Tzfat, Israel</formatted_address>
        <address_component>
            <long_name>Tzfat</long_name>
            <short_name>Tzfat</short_name>
            <type>administrative_area_level_2</type>
            <type>political</type>
        </address_component>
        <address_component>
            <long_name>North District</long_name>
            <short_name>North District</short_name>
            <type>administrative_area_level_1</type>
            <type>political</type>
        </address_component>
        <address_component>
            <long_name>Israel</long_name>
            <short_name>IL</short_name>
            <type>country</type>
            <type>political</type>
        </address_component>
        <geometry>
            <location>
                <lat>33.0229939</lat>
                <lng>35.5220012</lng>
            </location>
            <location_type>APPROXIMATE</location_type>
            <viewport>
                <southwest>
                    <lat>32.8768309</lat>
                    <lng>35.3617889</lng>
                </southwest>
                <northeast>
                    <lat>33.2908349</lat>
                    <lng>35.6850490</lng>
                </northeast>
            </viewport>
            <bounds>
                <southwest>
                    <lat>32.8768309</lat>
                    <lng>35.3617889</lng>
                </southwest>
                <northeast>
                    <lat>33.2908349</lat>
                    <lng>35.6850490</lng>
                </northeast>
            </bounds>
        </geometry>
        <place_id>ChIJl21OH7WfHhURUnJ3rYxKBBE</place_id>
    </result>
    <result>
        <type>administrative_area_level_1</type>
        <type>political</type>
        <formatted_address>North District, Israel</formatted_address>
        <address_component>
            <long_name>North District</long_name>
            <short_name>North District</short_name>
            <type>administrative_area_level_1</type>
            <type>political</type>
        </address_component>
        <address_component>
            <long_name>Israel</long_name>
            <short_name>IL</short_name>
            <type>country</type>
            <type>political</type>
        </address_component>
        <geometry>
            <location>
                <lat>32.8972246</lat>
                <lng>35.3027226</lng>
            </location>
            <location_type>APPROXIMATE</location_type>
            <viewport>
                <southwest>
                    <lat>32.3869671</lat>
                    <lng>35.0272979</lng>
                </southwest>
                <northeast>
                    <lat>33.3328050</lat>
                    <lng>35.8962440</lng>
                </northeast>
            </viewport>
            <bounds>
                <southwest>
                    <lat>32.3869671</lat>
                    <lng>35.0272979</lng>
                </southwest>
                <northeast>
                    <lat>33.3328050</lat>
                    <lng>35.8962440</lng>
                </northeast>
            </bounds>
        </geometry>
        <place_id>ChIJdVSqdIk3HBURL7ZpTXHxZaU</place_id>
    </result>
    <result>
        <type>country</type>
        <type>political</type>
        <formatted_address>Israel</formatted_address>
        <address_component>
            <long_name>Israel</long_name>
            <short_name>IL</short_name>
            <type>country</type>
            <type>political</type>
        </address_component>
        <geometry>
            <location>
                <lat>31.0460510</lat>
                <lng>34.8516120</lng>
            </location>
            <location_type>APPROXIMATE</location_type>
            <viewport>
                <southwest>
                    <lat>29.4797000</lat>
                    <lng>34.2673871</lng>
                </southwest>
                <northeast>
                    <lat>33.3328050</lat>
                    <lng>35.8962440</lng>
                </northeast>
            </viewport>
            <bounds>
                <southwest>
                    <lat>29.4797000</lat>
                    <lng>34.2673871</lng>
                </southwest>
                <northeast>
                    <lat>33.3328050</lat>
                    <lng>35.8962440</lng>
                </northeast>
            </bounds>
        </geometry>
        <place_id>ChIJi8mnMiRJABURuiw1EyBCa2o</place_id>
    </result>
    <plus_code>
        <global_code>8G4QXCWX+2V</global_code>
        <compound_code>XCWX+2V Bar Yohai, Israel</compound_code>
    </plus_code>
</GeocodeResponse>
