<?xml version="1.0" encoding="UTF-8"?>
<GeocodeResponse>
    <status>OK</status>
    <result>
        <type>street_address</type>
        <formatted_address>Kalischer St 1-5, Holon, Israel</formatted_address>
        <address_component>
            <long_name>1-5</long_name>
            <short_name>1-5</short_name>
            <type>street_number</type>
        </address_component>
        <address_component>
            <long_name>Kalischer Street</long_name>
            <short_name>Kalischer St</short_name>
            <type>route</type>
        </address_component>
        <address_component>
            <long_name>Holon</long_name>
            <short_name>Holon</short_name>
            <type>locality</type>
            <type>political</type>
        </address_component>
        <address_component>
            <long_name>Center District</long_name>
            <short_name>Center District</short_name>
            <type>administrative_area_level_1</type>
            <type>political</type>
        </address_component>
        <address_component>
            <long_name>Israel</long_name>
            <short_name>IL</short_name>
            <type>country</type>
            <type>political</type>
        </address_component>
        <geometry>
            <location>
                <lat>32.0234380</lat>
                <lng>34.7766799</lng>
            </location>
            <location_type>RANGE_INTERPOLATED</location_type>
            <viewport>
                <southwest>
                    <lat>32.0220583</lat>
                    <lng>34.7755134</lng>
                </southwest>
                <northeast>
                    <lat>32.0247563</lat>
                    <lng>34.7782113</lng>
                </northeast>
            </viewport>
            <bounds>
                <southwest>
                    <lat>32.0233690</lat>
                    <lng>34.7763857</lng>
                </southwest>
                <northeast>
                    <lat>32.0234456</lat>
                    <lng>34.7773390</lng>
                </northeast>
            </bounds>
        </geometry>
        <place_id>EizZg9mE2YrYtNixIDEtNdiMINit2YjZhNmI2YbYjCDYpdiz2LHYp9im2YrZhA</place_id>
    </result>
    <result>
        <type>locality</type>
        <type>political</type>
        <formatted_address>Holon, Israel</formatted_address>
        <address_component>
            <long_name>Holon</long_name>
            <short_name>Holon</short_name>
            <type>locality</type>
            <type>political</type>
        </address_component>
        <address_component>
            <long_name>Center District</long_name>
            <short_name>Center District</short_name>
            <type>administrative_area_level_1</type>
            <type>political</type>
        </address_component>
        <address_component>
            <long_name>Israel</long_name>
            <short_name>IL</short_name>
            <type>country</type>
            <type>political</type>
        </address_component>
        <geometry>
            <location>
                <lat>32.0158330</lat>
                <lng>34.7873840</lng>
            </location>
            <location_type>APPROXIMATE</location_type>
            <viewport>
                <southwest>
                    <lat>31.9887360</lat>
                    <lng>34.7483765</lng>
                </southwest>
                <northeast>
                    <lat>32.0380170</lat>
                    <lng>34.8140420</lng>
                </northeast>
            </viewport>
            <bounds>
                <southwest>
                    <lat>31.9887360</lat>
                    <lng>34.7483765</lng>
                </southwest>
                <northeast>
                    <lat>32.0380170</lat>
                    <lng>34.8140420</lng>
                </northeast>
            </bounds>
        </geometry>
        <place_id>ChIJOb8zDLu0AhURLeclBWR53fs</place_id>
    </result>
    <result>
        <type>administrative_area_level_3</type>
        <type>political</type>
        <formatted_address>Ezor Holon, Israel</formatted_address>
        <address_component>
            <long_name>Ezor Holon</long_name>
            <short_name>Ezor Holon</short_name>
            <type>administrative_area_level_3</type>
            <type>political</type>
        </address_component>
        <address_component>
            <long_name>Center District</long_name>
            <short_name>Center District</short_name>
            <type>administrative_area_level_1</type>
            <type>political</type>
        </address_component>
        <address_component>
            <long_name>Israel</long_name>
            <short_name>IL</short_name>
            <type>country</type>
            <type>political</type>
        </address_component>
        <geometry>
            <location>
                <lat>32.0167556</lat>
                <lng>34.7796030</lng>
            </location>
            <location_type>APPROXIMATE</location_type>
            <viewport>
                <southwest>
                    <lat>31.9887360</lat>
                    <lng>34.7330550</lng>
                </southwest>
                <northeast>
                    <lat>32.0468150</lat>
                    <lng>34.8293839</lng>
                </northeast>
            </viewport>
            <bounds>
                <southwest>
                    <lat>31.9887360</lat>
                    <lng>34.7330550</lng>
                </southwest>
                <northeast>
                    <lat>32.0468150</lat>
                    <lng>34.8293839</lng>
                </northeast>
            </bounds>
        </geometry>
        <place_id>ChIJvaj-ISZLHRURTijUzXm_7sw</place_id>
    </result>
    <result>
        <type>administrative_area_level_1</type>
        <type>political</type>
        <formatted_address>Center District, Israel</formatted_address>
        <address_component>
            <long_name>Center District</long_name>
            <short_name>Center District</short_name>
            <type>administrative_area_level_1</type>
            <type>political</type>
        </address_component>
        <address_component>
            <long_name>Israel</long_name>
            <short_name>IL</short_name>
            <type>country</type>
            <type>political</type>
        </address_component>
        <geometry>
            <location>
                <lat>31.9521108</lat>
                <lng>34.9065510</lng>
            </location>
            <location_type>APPROXIMATE</location_type>
            <viewport>
                <southwest>
                    <lat>31.7571918</lat>
                    <lng>34.6665428</lng>
                </southwest>
                <northeast>
                    <lat>32.4126018</lat>
                    <lng>35.0514220</lng>
                </northeast>
            </viewport>
            <bounds>
                <southwest>
                    <lat>31.7571918</lat>
                    <lng>34.6665428</lng>
                </southwest>
                <northeast>
                    <lat>32.4126018</lat>
                    <lng>35.0514220</lng>
                </northeast>
            </bounds>
        </geometry>
        <place_id>ChIJ1dI8PjMVHRURwtHEUjGbcmU</place_id>
    </result>
    <result>
        <type>country</type>
        <type>political</type>
        <formatted_address>Israel</formatted_address>
        <address_component>
            <long_name>Israel</long_name>
            <short_name>IL</short_name>
            <type>country</type>
            <type>political</type>
        </address_component>
        <geometry>
            <location>
                <lat>31.0460510</lat>
                <lng>34.8516120</lng>
            </location>
            <location_type>APPROXIMATE</location_type>
            <viewport>
                <southwest>
                    <lat>29.4906463</lat>
                    <lng>34.2673871</lng>
                </southwest>
                <northeast>
                    <lat>33.3328050</lat>
                    <lng>35.8962440</lng>
                </northeast>
            </viewport>
            <bounds>
                <southwest>
                    <lat>29.4906463</lat>
                    <lng>34.2673871</lng>
                </southwest>
                <northeast>
                    <lat>33.3328050</lat>
                    <lng>35.8962440</lng>
                </northeast>
            </bounds>
        </geometry>
        <place_id>ChIJi8mnMiRJABURuiw1EyBCa2o</place_id>
    </result>
</GeocodeResponse>
